plant_code,generator_id,plant_name,state,nameplate_mw,operating_year,latitude,longitude
66624,DBD,Double Back Diamond,IL,592.8,2024,39.53729,-89.809783
64347,7777,Mockingbird Solar Center,TX,471.0,2024,33.39167,-95.42519
65644,LUMII,Lumina II Solar Project,TX,326.6,2024,32.883528,-100.746389
65645,LUMIN,Lumina Solar Project,TX,326.6,2024,32.901081,-100.982695
64859,IPRAD,"IP Radian, LLC",TX,320.0,2023,31.5481,-99.1872
61852,ESMSF,Eagle Shadow Mountain Solar Farm,NV,300.0,2023,36.629761,-114.684033
66263,1111,Eleven Mile Solar Center,AZ,300.0,2024,32.86097,-111.59191
62755,PROSP,Prospero Solar,TX,300.0,2020,32.287873,-102.840399
59871,GEN01,Desert Quartzite,CA,300.0,2024,33.565,-114.753
65030,LAVE1,Oxbow Solar 1,LA,300.0,2024,30.667878,-91.391706
63320,IPTTN,Titan Solar Project,TX,260.0,2021,31.70038,-104.458136
57378,AVSR,AV Solar Ranch One,CA,253.0,2014,34.780278,-118.42444
61202,MTSG3,Mount Signal Solar Farm V,CA,252.3,2018,32.678805,-115.56721
65734,OBIPV,Oberon Solar Project,CA,250.0,2023,33.72899,-115.38238
61906,PHOEB,Phoebe Solar,TX,250.0,2019,31.843422,-102.868295
63300,IPAT1,Athos Solar Project,CA,250.0,2022,33.751283,-115.35499
67127,TOOM1,"SR Toombs, LLC",GA,250.0,2024,32.294555,-82.41625
64325,PROSP,Prospero Solar II,TX,250.0,2021,32.275814,-102.844806
66821,ORN3,Orion III Solar Project,TX,250.0,2024,30.960219,-97.12452
66941,ORN2,Orion II Solar Project,TX,250.0,2024,31.029028,-96.934783
57859,1,Moapa Southern Paiute,NV,250.0,2016,36.52995,-114.770308
65735,OBIIP,Oberon II Solar Project,CA,250.0,2023,33.72899,-115.38238
63770,COBH1,Bighorn Solar 1,CO,240.0,2021,38.207518,-104.596708
62462,GEN01,Muscle Shoals,AL,227.0,2021,34.76973,-87.90454
65053,IPBMS,Blythe Mesa Solar II,CA,223.6,2022,33.640813,-114.680261
67285,GEN01,Sun Streams 3,AZ,215.0,2024,33.331667,-112.811944
61696,TWIGG,Twiggs Solar,GA,204.0,2020,32.604997,-83.491239
65007,PV1,Grant County,WI,200.0,2024,42.718978,-90.701036
66859,ORN1,Orion I Solar Project,TX,200.0,2024,30.996511,-97.001505
64290,IPAT2,"SE Athos II, LLC",CA,200.0,2021,33.751283,-115.35499
65333,785,Shakes Solar,TX,200.0,2022,28.44208,-99.75582
62893,PWOLF,Prairie Wolf Solar LLC,IL,200.0,2021,39.544605,-87.97198
65032,COSM1,Sun Mountain Solar 1,CO,200.0,2022,38.180331,-104.518529
66046,BRZ01,Brazoria County Solar Project (Danciger),TX,200.0,2022,29.1779,-95.7612
62200,HILLC,Hillcrest Solar,OH,200.0,2021,39.076972,-83.906046
65947,TB,Tres Bahias,TX,196.3,2024,28.68851,-96.509833
63329,IPAGN,Aragorn Solar Project,TX,187.2,2021,31.719983,-104.442292
66112,U1,Newport Solar Project,AR,180.0,2023,35.668902,-91.187108
60654,GEN01,Townsite Solar Project Hybrid,NV,180.0,2021,35.937336,-114.883999
60572,GEN01,White Wing Solar,AZ,179.0,2024,32.994056,-113.508806
62675,SKIPJ,Skipjack Solar Center,VA,175.0,2022,37.437106,-77.158736
66818,RUSVL,SR Russellville,KY,173.0,2024,36.795723,-86.94326
64841,SOTOI,"SR DeSoto I, LLC",GA,165.0,2022,31.886486,-84.021586
63328,JUNO1,Juno Solar Project,TX,162.1,2021,32.772889,-101.39102
67580,MKM,Markum Solar Farm,TX,161.0,2024,31.694792,-97.374883
60827,GEN01,"Sun Streams, LLC",AZ,160.0,2020,33.34884,-112.8348
65674,PV,Edwards Sanborn E1B,CA,154.4,2022,34.964033,-118.094144
60044,BKTH1,Buckthorn Westex,TX,154.0,2018,30.57552,-102.551292
65031,INBF1,Bellflower Solar 1,IN,152.5,2023,39.786742,-85.416371
57695,TPZ2,Topaz Solar Farm,CA,151.2,2013,35.405556,-120.068611
59879,GEN01,North Rosamond Solar LLC,CA,151.1,2019,34.862,-118.38
67019,CHSLR,"Copperhead Solar, LLC",TX,150.0,2024,31.45,-96.86
65008,PV1,Onion River,WI,150.0,2023,43.6002,-87.896589
63440,GEN01,Sun Streams 2,AZ,150.0,2021,33.320406,-112.816771
60034,GEN01,"CA Flats Solar 150, LLC",CA,150.0,2019,35.615573,-120.404352
68474,TXPC1,Peacock Energy Project,TX,150.0,2024,28.000395,-97.387902
67964,A150M,Agave,AZ,150.0,2023,33.32389,-112.83972
66954,23001,Umbriel Solar,TX,150.0,2023,30.668754,-94.783466
64878,PV,Edwards Sanborn E1A,CA,149.3,2022,34.961922,-118.124208
64637,BRS,Big River Solar,IL,149.0,2022,38.050141,-88.295525
65675,PV,Edwards Sanborn E4,CA,148.9,2022,34.943575,-118.087989
57491,56819,Imperial Solar Energy Center West,CA,148.7,2016,32.772225,-115.779311
59897,1,Taylor County Solar,GA,148.0,2016,32.583056,-84.297222
58467,CVS1,Campo Verde Solar,CA,147.4,2013,32.753333,-115.726389
63328,IPJNO,Juno Solar Project,TX,143.5,2021,32.772889,-101.39102
64879,PV,Edwards Sanborn E2,CA,137.8,2021,34.941507,-118.129025
65711,GEN1,Vikings Energy Farm,CA,136.8,2024,32.803363,-115.27174
65975,TXST1,Starr Solar Ranch,TX,136.0,2024,26.523359,-99.017108
57373,AGU2,Agua Caliente Solar Project,AZ,136.0,2012,32.9774,-113.4945
65976,LAPR1,Prairie Ronde Solar Farm,LA,135.0,2024,30.61,-92.17
63764,TXEB1,Elm Branch Solar 1,TX,134.7,2021,32.23256,-96.706121
60033,GEN01,"CA Flats Solar 130, LLC",CA,130.0,2017,35.615573,-120.404352
57695,TPZ1,Topaz Solar Farm,CA,129.8,2013,35.405556,-120.068611
57490,56819,Imperial Solar Energy Center South,CA,128.9,2013,32.663289,-115.658284
67018,WLDSP,Wild Springs,SD,128.0,2024,44.07,-102.84
63769,TXBC1,Briar Creek Solar 1,TX,127.0,2021,32.067483,-96.585136
62470,GEN01,Cove Mountain Solar 2,UT,122.0,2020,37.638602,-113.637097
57373,AGU3,Agua Caliente Solar Project,AZ,121.0,2014,32.9774,-113.4945
63273,1215,Wagyu,TX,120.0,2020,29.242304,-95.658144
65319,MAPL,Maplewood Solar,VA,120.0,2022,36.89,-79.32
60436,1,East Pecos Solar,TX,118.5,2017,31.000883,-102.281744
65225,ENX17,"Waverly Solar, LLC",VA,118.0,2023,37.020784,-77.12265
63351,BBS2,Bluebell Solar II,TX,115.0,2020,31.888,-100.825
57695,TPZ5,Topaz Solar Farm,CA,112.5,2014,35.405556,-120.068611
62288,VAL01,"Valentine Solar, LLC",CA,111.2,2019,34.90422,-118.384341
57708,INV,Catalina Solar LLC,CA,110.0,2012,34.938261,-118.334492
66955,18099,Three Corners Solar,ME,110.0,2024,44.612621,-69.451817
65376,SNIP2,SR Snipesville II,GA,107.0,2021,31.708821,-82.715724
66171,SNIP3,SR Snipesville III,GA,107.0,2023,31.697152,-82.764546
64838,CLAY,"SR Clay, LLC",GA,106.0,2022,31.544831,-84.900566
59896,1,Butler Solar Project 103,GA,104.0,2016,32.561944,-84.275833
59826,GEN01,Sunshine Valley Solar,NV,103.5,2019,36.518,-116.497
57695,TPZ3,Topaz Solar Farm,CA,102.1,2014,35.405556,-120.068611
56917,1,"Imperial Valley Solar, LLC",CA,101.0,2013,32.671099,-115.587265
10444,LOC1,"Lockhart Solar PV, LLC",CA,100.4,2023,35.0308,-117.3563
64566,CNTRL,"Central Line Solar, LLC",AZ,100.0,2022,32.834322,-111.56803
66125,WESTL,"West Line Solar, LLC",AZ,100.0,2022,32.7559,-111.5548
63765,ALBB1,Black Bear Solar 1,AL,100.0,2023,32.196971,-86.327341
60261,GEN1,Playa Solar 2,NV,100.0,2017,36.408,-114.908
65981,TXSD1,Second Division Solar,TX,100.0,2024,29.170545,-95.741574
64191,LUMP,SR Lumpkin,GA,100.0,2021,32.025,-84.7325
62899,EASTL,East Line Solar,AZ,100.0,2020,32.84703,-111.565072
62812,MS1,Milford Solar 1,UT,99.0,2020,38.490667,-113.018283
66623,HGS,Harvest Gold Solar,MS,99.0,2024,33.505,-90.636
63766,ARHA1,Happy Solar 1,AR,95.0,2023,35.167715,-91.660279
57373,AGU1,Agua Caliente Solar Project,AZ,90.7,2012,32.9774,-113.4945
57695,TPZ4,Topaz Solar Farm,CA,90.3,2014,35.405556,-120.068611
60491,SB3SF,Springbok 3 Solar Farm Hybrid,CA,90.0,2019,35.171153,-118.001652
62165,SNIPE,Snipesville,GA,86.0,2020,31.715814,-82.74946
66699,LOC2,Lockhart Solar PV II,CA,84.4,2023,35.04351,-117.3489
62505,1,G.S.E. One LLC,TX,83.0,2021,33.500378,-96.146489
67171,F2024,Foxhound,VA,83.0,2024,36.875897,-78.741874
63061,CLVR,Clover Creek Solar Community Solar,UT,80.0,2021,39.840652,-111.887656
66173,AILEY,SR Ailey,GA,80.0,2024,32.193594,-82.538735
64150,LANCR,Lancaster Solar GA,GA,80.0,2021,31.766506,-84.797206
64469,OEALD,Wing,AL,80.0,2023,31.007777,-86.59194
62177,DH001,"Desert Harvest, LLC",CA,80.0,2020,33.8,-115.38
66634,ENX20,Adams Solar LLC PA,PA,80.0,2023,39.879553,-77.197226
63076,GUTN,Gutenberg Solar,NC,79.9,2019,36.486428,-77.534825
59827,GEN01,"Playa Solar 1, LLC",NV,79.0,2017,36.408,-114.908
58646,STL,Stateline Solar,CA,75.9,2015,35.6,-115.4
65012,PV1,Crawfish River,WI,75.0,2023,43.0,-88.8764
62679,1405,Palmetto Plains,SC,75.0,2019,33.340179,-80.697336
63271,1295,Huntley,SC,75.0,2020,33.335583,-80.634174
65173,PV1,Hardeetown Solar Power Plant,FL,74.9,2023,29.48562,-82.843455
60030,PECAN,Pecan Solar,NC,74.9,2018,36.481008,-77.481164
61982,PV1,Columbia Solar Power Plant,FL,74.9,2020,29.882644,-82.696145
66639,PV1,Falmouth Renewable Energy Center,FL,74.9,2024,30.3436,-83.1562
63517,PV1,Santa Fe Solar Power Plant,FL,74.9,2021,29.880408,-82.732589
65170,PV1,Hildreth Solar Power Plant,FL,74.9,2023,29.964842,-82.823199
65171,PV1,Bay Ranch Solar Power Plant,FL,74.9,2023,30.164754,-85.49179
65172,PV1,High Springs Solar Power Plant,FL,74.9,2023,29.810018,-82.639837
61667,1,Wimauma Solar and Battery Storage,FL,74.8,2020,27.730414,-82.263505
65420,1,Bluefield Preserve Solar,FL,74.5,2023,27.24354,-80.67097
61663,GEN1,Lithia Solar,FL,74.5,2019,27.753272,-82.164656
65438,1,FPL Cavendish Solar Energy Center,FL,74.5,2023,27.627009,-80.804159
65433,1,Blackwater River Solar Energy Center,FL,74.5,2023,30.64691,-86.93821
65432,1,Apalachee,FL,74.5,2023,30.76055,-85.06952
65428,1,Pink Trial Solar Energy Center,FL,74.5,2023,27.29783,-80.54214
65427,1,FPL Flowers Creek Solar Energy Center,FL,74.5,2023,30.569958,-85.040244
65424,1,First City Solar Energy Center,FL,74.5,2023,30.91993,-87.34002
65423,1,Everglades Solar Energy Center,FL,74.5,2023,25.54255,-80.55434
65422,1,FPL Chipola River Solar Energy Center,FL,74.5,2023,30.45463,-85.27853
65041,1,Elder Branch,FL,74.5,2022,27.5966,-82.25272
65040,1,Immokalee,FL,74.5,2022,26.474576,-81.433471
65039,1,Sundew,FL,74.5,2022,27.264113,-80.546851
65038,1,Ghost Orchid Solar Energy Center,FL,74.5,2022,26.417212,-81.03531
65037,1,Sawgrass Solar Energy Center,FL,74.5,2022,26.381386,-81.053721
67203,1,Bullfrog Creek Solar,FL,74.5,2024,27.660584,-82.295627
64631,1,Jamison Solar (FL),FL,74.5,2022,27.806645,-81.955676
64657,1,Magnolia Solar,FL,74.5,2021,27.917716,-82.048697
61022,1,Coral Farms Solar Energy Center,FL,74.5,2018,29.756944,-81.897222
65042,1,Grove,FL,74.5,2022,27.580883,-80.652711
62750,GEN1,Little Manatee River Solar,FL,74.5,2020,27.691262,-82.410575
62491,1,Okeechobee Solar,FL,74.5,2020,27.630392,-80.794784
62206,1,Hibiscus Solar Energy Center,FL,74.5,2020,26.7601,-80.3065
66128,1,Lake Mabel Solar and Battery Storage,FL,74.5,2023,27.9788,-81.61015
61654,PV1,Balm Solar,FL,74.4,2018,27.76284,-82.23463
62058,TERRL,SR Terrell,GA,74.0,2020,31.871387,-84.361952
61701,GEN1,Seabrook Solar,SC,72.5,2019,32.56445,-80.742047
61665,GEN1,Payne Creek Solar,FL,70.3,2018,27.664583,-81.964222
62678,299,Crooked Run,NC,70.1,2019,34.67704,-77.977497
63976,959,Bay Tree,NC,70.1,2021,34.70414,-78.393358
64840,SRCS,"SR Cedar Springs, LLC",GA,70.0,2022,31.2453,-85.086975
65629,SRMCK,SR McKellar,TN,70.0,2023,35.574169,-88.926606
65683,1,Juniper Solar (FL),FL,70.0,2023,28.181569,-82.155331
64103,DH002,Desert Harvest II LLC,CA,70.0,2020,33.8,-115.38
68148,1,Baldwin Solar BESS,IL,68.4,2024,38.203536,-89.853939
64151,PERRY,SR Perry,GA,68.0,2021,32.39597,-83.762901
65676,PV,Edwards Sanborn E5,CA,68.0,2022,34.965275,-118.0773
57295,1,Alpine Solar,CA,66.0,2013,34.7892,-118.5047
66635,ENX20,Caden Energix Axton LLC,VA,66.0,2023,36.667889,-79.755013
66172,SOTO2,SR DeSoto II,GA,65.0,2023,31.87042,-84.03574
58848,1,Warsaw Farm,NC,65.0,2015,35.005556,-78.125833
56917,1A,"Imperial Valley Solar, LLC",CA,64.6,2013,32.671099,-115.587265
58713,NSTR,North Star Solar,CA,61.6,2015,36.73,-120.41
65684,1,Laurel Oaks Solar,FL,61.2,2022,27.926882,-82.067668
61656,PV1,Grange Hall Solar,FL,61.1,2019,27.681278,-82.164656
61653,PV1,Alafia Solar,FL,60.0,2023,27.723197,-82.025608
66825,SOTO3,SR DeSoto III,GA,60.0,2023,31.868033,-84.007772
63495,1,Durrance,FL,60.0,2021,27.78,-81.98
62469,GEN01,Cove Mountain Solar,UT,58.0,2020,37.623123,-113.619219
62399,77778,Sage Solar I-III,UT,57.6,2019,41.77,-111.06
63350,GA3,OE_GA3,GA,57.5,2020,31.196185,-84.147539
61666,GEN,Peace Creek Solar,FL,55.4,2019,27.913306,-81.810111
65687,1,Riverside Solar,FL,55.2,2022,27.68368,-82.47243
59010,MSS1,Macho Springs,NM,55.0,2014,32.57,-107.48
61664,GEN1,Mountain View Solar (FL),FL,54.6,2022,28.39799,-82.22043
60383,MONPV,Monroe Solar Facility,NC,54.6,2017,34.929945,-80.625615
58592,SONR,Solar Gen 2 Solar Facility,CA,54.4,2014,33.08,-115.47
58592,ALHM,Solar Gen 2 Solar Facility,CA,54.4,2014,33.08,-115.47
58592,ARK,Solar Gen 2 Solar Facility,CA,54.4,2014,33.08,-115.47
60560,MILL,Millington Solar Farm,TN,53.0,2018,35.351533,-89.854725
60554,STHLV,Hazlehurst II,GA,52.5,2016,31.819444,-82.602222
57442,56188,Silver State Solar Power North,NV,52.0,2012,35.793056,-115.35028
61988,FL501,Citrus Ridge Solar,FL,52.0,2018,28.40078,-81.61632
63929,TROY1,Troy Solar,IN,50.4,2021,38.015372,-86.791594
62464,GEN01,Little Bear 4,CA,50.0,2020,36.716,-120.415
59691,GCSC3,Gulf Coast Solar Center III,FL,50.0,2017,30.470351,-87.335193
63128,ISLLC,Iris Solar LLC,LA,50.0,2022,30.78184,-90.19536
67167,LSSLR,Louise Solar,MN,50.0,2024,43.562,-92.683
64842,SRTC,"SR Turkey Creek, LLC",KY,50.0,2022,37.592994,-84.567965
62465,GEN01,Little Bear 5,CA,50.0,2020,36.716,-120.415
65066,1,Hoot Lake Solar,MN,49.9,2023,46.290641,-96.043252
61657,PV1,Lake Hancock Solar,FL,49.5,2019,27.719139,-82.033889
60125,KAWS,Kawailoa Solar,HI,49.0,2019,21.624,-158.055
60024,WPO,Waipio Solar,HI,45.9,2019,21.456,-157.982
64641,2,Big Bend II Solar,FL,45.8,2022,27.781988,-82.390452
59634,SNDST,Sandstone Solar,AZ,45.0,2015,33.035556,-111.430278
67168,FILCO,Fillmore County Solar Project,MN,45.0,2024,43.552,-92.357
64929,PV,Edwards Sanborn S1,CA,44.6,2022,35.02769,-118.13284
68147,1,Coffeen Solar BESS,IL,44.2,2024,39.068994,-89.393356
63187,FL4,"FL Solar 4, LLC",FL,42.0,2019,30.2354,-84.2233
58462,BLK7,McCoy Solar Energy Project Hybrid,CA,41.9,2016,33.694722,-114.739722
58462,1,McCoy Solar Energy Project Hybrid,CA,41.9,2016,33.694722,-114.739722
65677,PV,Edwards Sanborn S4,CA,41.2,2022,35.012467,-118.119264
57993,DSL1,"Desert Sunlight 300, LLC",CA,40.3,2013,33.823056,-115.393889
57993,DSL3,"Desert Sunlight 300, LLC",CA,40.3,2013,33.823056,-115.393889
57993,DSL2,"Desert Sunlight 300, LLC",CA,40.3,2013,33.823056,-115.393889
59690,GCSC2,Gulf Coast Solar Center II,FL,40.0,2017,30.430766,-86.895204
59870,GEN01,"Little Bear Solar 1, LLC",CA,40.0,2020,36.716,-120.415
59164,NSC 1,Elm City Solar Facility,NC,40.0,2016,35.781111,-77.846944
58462,BLK3,McCoy Solar Energy Project Hybrid,CA,39.6,2016,33.694722,-114.739722
58542,DSL13,"Desert Sunlight 250, LLC",CA,39.1,2014,33.8055,-115.3947
58542,DSL12,"Desert Sunlight 250, LLC",CA,39.1,2013,33.8055,-115.3947
58646,STL6,Stateline Solar,CA,37.9,2016,35.6,-115.4
58646,STL7,Stateline Solar,CA,37.9,2016,35.6,-115.4
58646,STL5,Stateline Solar,CA,37.9,2016,35.6,-115.4
58646,STL4,Stateline Solar,CA,37.9,2016,35.6,-115.4
58646,STL3,Stateline Solar,CA,37.9,2016,35.6,-115.4
64928,PV,Edwards Sanborn S3,CA,37.7,2022,35.01644,-118.1225
61655,PV1,Bonnie Mine Solar,FL,37.5,2019,27.89008,-81.98717
58644,BLK3,Silver State Solar Power South,NV,37.2,2015,35.63,-115.32
58644,BLK6,Silver State Solar Power South,NV,36.6,2016,35.63,-115.32
58462,BLK8,McCoy Solar Energy Project Hybrid,CA,36.5,2015,33.694722,-114.739722
58644,BLK4,Silver State Solar Power South,NV,35.7,2016,35.63,-115.32
58644,BLK5,Silver State Solar Power South,NV,35.0,2016,35.63,-115.32
58644,BLK7,Silver State Solar Power South,NV,35.0,2016,35.63,-115.32
65630,SRBEL,SR Bell Buckle,TN,35.0,2023,35.57,-86.46
56917,1B,"Imperial Valley Solar, LLC",CA,34.3,2014,32.671099,-115.587265
58646,STL2,Stateline Solar,CA,34.1,2015,35.6,-115.4
58017,PV03,Copper Mountain Solar 2,NV,34.0,2012,35.786389,-114.962778
63349,AZ1,OE_AZ1,AZ,32.5,2020,33.776667,-113.656111
58462,BLK5,McCoy Solar Energy Project Hybrid,CA,31.4,2015,33.694722,-114.739722
65219,ENX16,"Caden Energix Endless Caverns, LLC",VA,31.4,2023,38.613601,-78.677069
58462,BLK4,McCoy Solar Energy Project Hybrid,CA,31.4,2015,33.694722,-114.739722
57243,CIM1,Cimarron Solar Facility,NM,30.6,2010,36.468078,-104.635659
58710,BRLA,Barilla Solar,TX,30.2,2015,30.96,-103.35
57993,DSL10,"Desert Sunlight 300, LLC",CA,30.2,2013,33.823056,-115.393889
57993,DSL4,"Desert Sunlight 300, LLC",CA,30.2,2013,33.823056,-115.393889
58017,PV04,Copper Mountain Solar 2,NV,30.0,2015,35.786389,-114.962778
58017,PV05,Copper Mountain Solar 2,NV,30.0,2015,35.786389,-114.962778
58017,PV02,Copper Mountain Solar 2,NV,30.0,2012,35.786389,-114.962778
58017,PV01,Copper Mountain Solar 2,NV,30.0,2012,35.786389,-114.962778
59689,GCSC1,Gulf Coast Solar Center I,FL,30.0,2017,30.515448,-86.518407
59723,SEV2,Seville 2,CA,30.0,2015,33.1101,-116.0059
58542,DSL17,"Desert Sunlight 250, LLC",CA,29.0,2013,33.8055,-115.3947
58542,DSL18,"Desert Sunlight 250, LLC",CA,29.0,2014,33.8055,-115.3947
58644,BLK2,Silver State Solar Power South,NV,27.9,2015,35.63,-115.32
64877,PV,Edwards Sanborn E3,CA,27.1,2021,34.946324,-118.126489
59009,PV1,Hayworth Solar,CA,27.0,2015,35.325278,-118.878611
58408,MSH1,Maryland Solar,MD,27.0,2013,39.563056,-77.720278
58462,BLK6,McCoy Solar Energy Project Hybrid,CA,26.9,2015,33.694722,-114.739722
58542,DSL14,"Desert Sunlight 250, LLC",CA,26.5,2014,33.8055,-115.3947
58644,BLK1,Silver State Solar Power South,NV,26.4,2015,35.63,-115.32
58644,BLK8,Silver State Solar Power South,NV,26.3,2016,35.63,-115.32
57993,DSL6,"Desert Sunlight 300, LLC",CA,25.2,2014,33.823056,-115.393889
58542,DSL19,"Desert Sunlight 250, LLC",CA,25.2,2014,33.8055,-115.3947
57993,DSL5,"Desert Sunlight 300, LLC",CA,25.2,2014,33.823056,-115.393889
58542,DSL20,"Desert Sunlight 250, LLC",CA,25.2,2013,33.8055,-115.3947
57657,1,Avra Valley Solar,AZ,25.0,2013,32.371667,-111.282777
66129,1,Dover Solar and Battery Storage,FL,25.0,2023,27.955865,-82.201381
66921,1,English Creek Solar,FL,23.0,2024,27.945756,-82.067228
58542,DSL16,"Desert Sunlight 250, LLC",CA,22.7,2013,33.8055,-115.3947
57993,DSL9,"Desert Sunlight 300, LLC",CA,22.7,2014,33.823056,-115.393889
59891,1,Butler Solar Farm 20,GA,22.0,2016,32.575542,-84.316547
58462,BLK2,McCoy Solar Energy Project Hybrid,CA,21.0,2016,33.694722,-114.739722
56939,1,Solar Blythe LLC,CA,21.0,2009,33.5917,-114.7444
57993,DSL11,"Desert Sunlight 300, LLC",CA,20.2,2013,33.823056,-115.393889
57338,1,Roadrunner Solar,NM,20.2,2011,31.792778,-106.673333
57993,DSL7,"Desert Sunlight 300, LLC",CA,20.2,2014,33.823056,-115.393889
64817,ENX10,"Energix Leatherwood, LLC",VA,20.0,2021,36.687071,-79.709472
63084,ENX02,Caden Energix Hickory LLC,VA,20.0,2020,36.624113,-76.194266
60091,GEN01,"Kingbird B Solar, LLC",CA,20.0,2016,34.824206,-118.438547
58991,1,"RE Kent South, LLC",CA,20.0,2014,36.226111,-119.905278
58986,1,"RE Old River One, LLC",CA,20.0,2014,35.223333,-119.088889
63801,1,St. Joseph Solar,IN,20.0,2021,41.7311,-86.1083
59878,GEN01,Windhub Solar A LLC,CA,20.0,2019,35.0199,-118.2879
63814,ODOM,SR Odom,GA,20.0,2020,31.06987,-83.596183
59088,GEN 1,Calipatria Solar Farm,CA,20.0,2016,33.165833,-115.532222
66103,BEIII,"Blue Elk III Solar, LLC",MI,20.0,2023,42.516,-84.593
59868,GEN01,Kingbird A Solar LLC,CA,20.0,2016,34.819,-118.432
58711,LTHL,Lost Hills/Blackwell,CA,20.0,2015,35.62,-119.85
66925,MCNEA,SR McNeal,AZ,20.0,2023,31.5551,-109.7013
62436,ARLI,SR Arlington I,GA,20.0,2021,31.402919,-84.836814
65314,ENX19,Caden Energix Wytheville LLC,VA,20.0,2022,36.964279,-81.049858
62463,GEN01,Little Bear 3,CA,20.0,2020,36.716,-120.415
59183,PV1,"CID Solar, LLC",CA,20.0,2014,36.138056,-119.564722
59431,SSG1,Sierra Solar Greenworks,CA,20.0,2015,34.703611,-118.334167
59528,OASIS,Solar Oasis LLC,CA,20.0,2016,34.648889,-118.076667
64012,ENX07,"Energix Nokesville, LLC",VA,20.0,2022,38.672,-77.593
59685,01,Remington Solar Facility,VA,20.0,2017,38.548333,-77.776389
59722,SEV1,Seville 1,CA,20.0,2015,33.1125,-116.0139
58623,PV1,Holstein Plant,NC,20.0,2015,34.774167,-79.340833
60582,PV1,CoTAL Solar Farm,FL,20.0,2017,30.37926,-84.353938
58985,1,"RE Kansas Solar, LLC",CA,20.0,2014,36.247778,-119.833889
64015,ENX05,"Energix Buckingham, LLC",VA,20.0,2021,37.5064,-78.381
645,1,Big Bend,FL,19.8,2017,27.7944,-82.4036
60678,SJ1A,San Joaquin Solar,CA,19.8,2018,36.527,-120.149
63087,ENX01,Caden Energix Rives Road LLC,VA,19.7,2020,37.177825,-77.337645
58984,1,"RE Adams East, LLC",CA,19.0,2014,36.6175,-120.290833
57993,DSL8,"Desert Sunlight 300, LLC",CA,18.9,2014,33.823056,-115.393889
66898,FTMS,Fort Martin Solar,WV,18.9,2024,39.707825,-79.948839
65224,ENX15,"Apple Grove Solar, LLC",VA,18.6,2023,37.919497,-77.862016
60584,01,Oceana Solar,VA,17.6,2017,36.789753,-76.051419
67178,MEPV,Mohave Energy - Hybrid,AZ,17.6,2023,34.99333,-114.548432
57669,PV1,SMUD at Grundman,CA,17.0,2011,38.364722,-121.41278
57562,PV1,Paloma Solar Hybrid,AZ,17.0,2011,33.021111,-112.661389
63388,SOLAR,Oxy Renewable Energy - Goldsmith,TX,16.8,2020,32.0015,-102.6337
58831,PV-1,Redcrest Solar Farm,CA,16.6,2015,35.321944,-118.812778
61462,PV1,SR Platte Solar Farm,CO,16.0,2017,40.181742,-104.692067
60555,SELMI,Selmer I,TN,16.0,2016,35.140556,-88.551111
67298,CANAD,"SR Canadaville, LLC",TN,16.0,2024,35.09961,-89.59874
60337,PROV,Providence Solar,TN,16.0,2017,35.578333,-89.047779
61318,SOLAR,Mt. Jackson Solar,VA,15.7,2021,38.739621,-78.660158
63083,ENX04,Caden Energix Pamplin LLC,VA,15.7,2020,37.32936,-78.76591
59008,PV1,Woodmere Solar Farm,CA,15.0,2015,35.323056,-118.821389
61412,LATSC,Latitude Solar Center,TN,15.0,2018,35.306387,-89.167539
61924,CUMB,"Cumblerland Land Holdings, LLC",AL,14.7,2018,34.94974,-86.868053
58281,1,Lanikuhana Solar LLC,HI,14.7,2019,21.4287,-158.02361
57197,1,Blue Wing Solar Energy Generation,TX,13.9,2010,29.304177,-98.400339
58542,DSL15,"Desert Sunlight 250, LLC",CA,13.9,2014,33.8055,-115.3947
57758,PV1,Mount Saint Mary's,MD,13.7,2012,39.675,-77.345
60023,FTLUP,SR Jenkins Ft Lupton,CO,13.0,2016,40.081444,-104.746661
64010,ENX06,"Energix Hollyfield, LLC",VA,13.0,2021,37.671,-77.17
57202,1,Jacksonville Solar,FL,12.6,2010,30.320748,-81.956377
66104,BEVII,"Blue Elk VII Solar, LLC",MI,12.5,2023,43.087,-83.567489
63965,1,"Danville Farm, LLC",VA,12.0,2020,36.591,-79.302
59947,AERO,SR Camden,AR,12.0,2015,33.631538,-92.703611
64160,STONE,SR North Stonington,CT,12.0,2024,41.434277,-71.814044
58711,BLKW,Lost Hills/Blackwell,CA,12.0,2015,35.62,-119.85
63084,ENX03,Caden Energix Hickory LLC,VA,12.0,2020,36.624113,-76.194266
59086,GEN1,"Cottonwood Solar, LLC (Goose Lake)",CA,12.0,2015,35.593611,-119.58
59087,GEN 1,"Cottonwood Solar, LLC (City of Corcoran)",CA,12.0,2015,36.134444,-119.554444
65151,ENX13,"Energix Aditya, LLC",VA,11.5,2023,38.017664,-77.952873
64072,CR1,Camp Ripley Solar,MN,10.9,2016,46.091,-94.34
60226,GEN01,"Rancho Seco Solar, LLC",CA,10.8,2016,38.339857,-121.114494
60679,1,Fort Rucker Solar Array,AL,10.6,2017,31.331148,-85.73019
66532,BCE21,BCE Los Alamitos 2,CA,10.0,2023,33.7841,-118.0509
64079,CS,CatanSolar,TX,10.0,2020,28.871642,-97.696944
57203,1,Wyandot Solar Farm,OH,10.0,2010,40.8795,-83.317072
57205,PV03,CM48,NV,10.0,2010,35.7814,-114.9933
62980,PV,Turquoise Liberty Solar,NV,10.0,2019,39.59,-119.52
66572,HPKS1,Highpeak Solar 1,TX,10.0,2024,32.494346,-101.276601
66533,BCE11,BCE Los Alamitos 1,CA,10.0,2023,33.7899,-118.0639
57205,PV05,CM48,NV,10.0,2010,35.7814,-114.9933
57205,PV04,CM48,NV,10.0,2010,35.7814,-114.9933
56944,PV01,CM10,NV,10.0,2008,35.7881,-114.9933
58627,WADR,Western Antelope Dry Ranch,CA,10.0,2016,34.688889,-118.320278
63027,20,Mars Solar,TX,10.0,2019,27.421553,-98.834962
57205,PV06,CM48,NV,10.0,2010,35.7814,-114.9933
59618,MLK,Meadow Lake Solar Energy Center,NM,9.1,2015,34.81,-106.52
58521,MAN1,Manzano Solar,NM,8.4,2013,34.746667,-106.654444
57205,PV02,CM48,NV,8.0,2010,35.7814,-114.9933
61433,SCNM1,SCE&G Nimitz CSG,SC,8.0,2018,32.497759,-80.956084
60556,SELM2,Selmer II,TN,8.0,2016,35.166111,-88.646667
58520,OTE1,Otero Solar,NM,8.0,2013,32.976389,-105.971111
60283,MVRKS,SR Mavericks,CO,7.8,2016,40.23,-105.03
59619,CBLA,Cibola,NM,7.6,2015,35.20115,-107.245156
60680,1,ANAD Solar Array,AL,7.4,2017,33.626728,-85.969481
6081,5051S,Stony Brook,MA,6.9,2018,42.1978,-72.5106
65641,SRPAR,SR Paris,TN,6.8,2022,36.445894,-88.327688
59558,SSEC1,Sandoval Solar Energy Center,NM,6.1,2014,35.283611,-106.812778
61434,SCSP1,SCE&G Springfield CSG,SC,6.1,2018,33.491,-81.297
64152,SNAKE,SR Rattlesnake,CO,6.0,2020,40.105427,-104.413144
66900,RIVS,Rivesville Solar,WV,5.5,2024,39.539042,-80.094402
62659,1081,"Pecan Grove Solar, LLC",NC,5.0,2019,35.067661,-77.185206
60301,HPV1,Holloman Solar Facility,NM,5.0,2018,32.921261,-106.072411
60982,1,Atkinson Farm Solar,NC,5.0,2015,34.896953,-77.795169
61085,1,Stone Solar,NC,5.0,2016,34.583119,-79.031836
61086,1,Tripple State Farm,NC,5.0,2016,35.734972,-80.774867
61087,1,Wadesboro Farm 1,NC,5.0,2015,34.99115,-80.09732
61088,1,Delco Farm,NC,5.0,2016,34.318997,-78.20905
61089,1,Fisher Solar Farm - NC,NC,5.0,2015,35.24125,-80.03465
61091,1,Laurinburg Farm,NC,5.0,2015,34.764403,-79.442969
61094,1,Old Wire Farm,NC,5.0,2016,34.817836,-79.513928
61095,1,Railroad Farm 2,NC,5.0,2014,34.807903,-78.950494
57571,LLSEC,Los Lunas Solar Energy Center,NM,5.0,2011,34.833136,-106.772413
57575,DSEC,Deming Solar Energy Center,NM,5.0,2011,32.165833,-107.75056
57576,LVSEC,Las Vegas Solar Energy Center,NM,5.0,2011,35.643333,-105.206667
57577,AGSEC,Alamogordo Solar Energy Center,NM,5.0,2011,32.86571,-105.999775
61220,1,"Spencer Farm, LLC",NC,5.0,2017,35.712886,-80.407853
61404,1,Pikeville Farm,NC,5.0,2017,35.478155,-77.979166
61405,1,"Moorings Farm 2, LLC",NC,5.0,2017,35.305747,-77.828889
58842,1,"Gato Montes Solar, LLC",AZ,5.0,2012,32.102778,-110.819722
67835,64544,Costa View Farms,CA,5.0,2024,36.99,-120.308
65553,KALIS,Kalish Farm Solar,NC,5.0,2018,35.308176,-79.720544
65552,HENRY,Henry Farm,NC,5.0,2017,35.859618,-79.577907
65534,MON,Monmouth,ME,5.0,2022,44.192188,-70.021685
65532,BALD,Baldwin,ME,5.0,2022,43.79322,-70.75685
59102,1,Dragstrip Farm,NC,5.0,2014,35.758056,-81.416111
59107,1,Mount Olive Farm,NC,5.0,2014,35.201944,-78.081667
60779,1,"McGoogan Farm, LLC",NC,5.0,2015,34.888736,-79.062708
60778,1,"Hew Fulton Farm, LLC",NC,5.0,2015,34.784039,-79.474542
60761,1,"Roper Farm, LLC",NC,5.0,2015,35.187475,-81.440717
59111,1,West Salisbury Farm LLC,NC,5.0,2015,35.668333,-80.523611
62054,AVS01,Alpha Value Solar,NC,5.0,2019,36.157401,-76.489563
59156,CTR1,Carter PV1,NC,5.0,2014,35.021111,-78.7875
62136,ART01,"Arthur Solar, LLC",NC,5.0,2018,34.16087,-78.84663
59157,PEC1,Pecan PV1,NC,5.0,2014,34.909167,-79.829444
59158,LNG1,Langley PV1,NC,5.0,2014,35.801944,-77.848889
59170,5MWPV,Jakana Solar,NC,5.0,2014,35.875278,-77.081111
59171,5MWPV,Windsor Solar,NC,5.0,2014,36.016944,-76.883056
62240,1072,"Burgaw Solar, LLC",NC,5.0,2019,34.536,-77.911678
59174,5MWPV,Lewiston Solar,NC,5.0,2014,36.141111,-77.211111
62329,JMVLR,"Jamesville Road Solar, LLC",NC,5.0,2019,35.845354,-76.801491
62330,CMDND,"Camden Dam Solar, LLC",NC,5.0,2019,36.311822,-76.125847
59176,5MWPV,Williamston Solar,NC,5.0,2014,35.801111,-77.063056
59213,PV1,Clipperton Holdings LLC,NC,5.0,2017,34.966944,-78.354444
59262,LLRC,Lancaster Little Rock,CA,5.0,2014,34.599444,-117.932778
59561,PV1,Crockett Farm,NC,5.0,2014,35.230833,-77.5525
62660,1025,"1025 Traveller Solar, LLC",NC,5.0,2019,35.427308,-79.126319
62662,22503,"Ennis Solar, LLC",NC,5.0,2019,35.421964,-78.721683
59563,PV1,Foxfire Solar Farm,NC,5.0,2015,35.220556,-79.551944
59564,PV1,Hutchinson Farm,NC,5.0,2014,35.260833,-81.515833
62691,PGR05,Shiloh Hwy Solar,NC,5.0,2017,36.27,-76.033
62692,PGR04,Sandy Solar,NC,5.0,2018,36.33,-76.058
59854,OLPV1,OlivePV,IN,5.0,2016,41.7,-86.49
60691,PV1,Tanager Holdings,NC,5.0,2019,35.7527,-79.784627
64727,BRKWD,Brookwood Drive Community Solar,MA,5.0,2022,41.59,-71.0942
60181,PV1,Grove Solar,NC,5.0,2019,35.16922,-77.1182
60651,1,"North Nash Farm, LLC",NC,5.0,2015,36.070336,-78.038319
60636,1,"Bunn Level Farm, LLC",NC,5.0,2016,35.308639,-78.774331
60601,BBSOL,Bay Branch Solar,NC,5.0,2018,35.4745,-77.1191
63377,PGR10,"ESA Hamlet NC , LLC",NC,5.0,2021,34.879581,-79.673277
64427,CSP1,Copperton Solar Plant No. 1,UT,5.0,2024,40.57664,-112.08461
64366,30007,"Trojan Solar, LLC",NC,5.0,2020,34.312472,-78.20425
64363,30008,"ESA Boston Solar, LLC",NC,5.0,2020,36.486008,-78.921771
60580,1,Soluga Farms III,NC,5.0,2015,35.219272,-78.673331
63449,PV1,Lang Solar Farm,NC,5.0,2016,35.19587,-77.502759
60576,1,Wadesboro Farm 3,NC,5.0,2016,34.969356,-80.051028
60575,1,Wadesboro Farm 2,NC,5.0,2016,35.023406,-80.093192
63733,11631,"Eros Solar, LLC",NC,5.0,2020,35.16513,-78.08025
63734,11632,"Ventura Solar, LLC",NC,5.0,2020,35.878809,-81.177116
60284,PV1,Organ Church Solar,NC,5.0,2019,35.525584,-80.451125
60287,PV1,Willard Solar,NC,5.0,2020,34.70249,-77.9697
60290,PV1,Jester Solar,NC,5.0,2020,35.36118,-77.8861
60394,PV1,Tamworth Holdings,NC,5.0,2019,34.745617,-78.421185
64002,11629,"Buttercup Solar, LLC",NC,5.0,2020,34.82354,-77.97275
65996,HARM,Harmony Solar,ME,4.9,2022,44.98,-69.54635
64476,1102,"Swansboro Solar, LLC",NC,4.9,2021,34.810913,-77.21041
60313,1,"Augustus Farm, LLC",NC,4.9,2015,35.599685,-77.639109
66956,74474,Pittsfield Solar (N. Main St),ME,4.9,2023,44.782085,-69.362419
67513,63612,ADC Varner,AR,4.9,2024,34.041298,-91.627949
63836,PV1,"Benson Solar, LLC",NC,4.9,2020,35.3962,-78.56223
59973,WDS1,Walt Disney World Solar Facility,FL,4.9,2016,28.3737,-81.562589
60240,1,"Yanceyville Farm 3, LLC",NC,4.9,2015,36.428608,-79.348886
63835,PV1,"Pilot Mountain Solar, LLC",NC,4.9,2020,36.27066,-80.37635
64478,1034,"1034 Catherine Lake Solar, LLC",NC,4.9,2021,34.78471,-77.498759
67081,BYHAL,"Sr Byhalia, LLC",MS,4.8,2023,34.860802,-89.66623
65550,TINKR,Tinker (NC),NC,4.8,2018,35.688268,-79.136921
67130,PANO2,"SR Panola II, LLC",MS,4.8,2024,34.340856,-89.911173
65638,SRGN1,SR Greenville I,TN,4.8,2022,36.294811,-82.698881
65639,SRGN2,SR Greenville II,TN,4.8,2022,36.1905,-82.740047
67132,PANO1,"SR Panola I, LLC",MS,4.8,2024,34.304153,-89.986318
67080,CLRK2,"SR Clarksville II, LLC",TN,4.8,2023,36.52119,-87.31507
59853,WVPV1,Watervliet PV,MI,4.6,2016,42.19,-86.23
62173,JONES,SR Jonesborough,TN,4.4,2018,36.252039,-82.520924
58972,FHUA2,Fort Huachuca Solar PV Project,AZ,4.1,2017,31.555278,-110.35
67519,63617,Fayetteville Public Schools (SWEPCO),AR,4.0,2023,35.147412,-93.870856
57575,HON2,Deming Solar Energy Center,NM,4.0,2013,32.165833,-107.75056
60247,VVS,Valley View Solar,CO,4.0,2015,40.418786,-104.891944
60161,PV1,Eagle Solar,NC,4.0,2020,36.458327,-78.155087
67520,63617,LRWRA,AR,4.0,2023,35.147412,-93.870856
59566,PV1,Ashley Solar Farm,NC,4.0,2015,36.126111,-80.798889
60248,CAREY,Skylark,CO,4.0,2015,40.577889,-104.894792
62041,CCBO1,Cuyahoga County Landfill,OH,3.7,2018,41.443122,-81.751526
67131,PANO3,"SR Panola III, LLC",MS,3.5,2024,34.302365,-89.987844
61314,KERS,SR Kersey,CO,3.5,2017,40.386197,-104.55095
67164,WARRN,"SR Warren, LLC",KY,3.5,2024,36.71168,-86.548559
60438,1,Whitakers Farm (Fisher Rd),NC,3.4,2016,36.115542,-77.725147
65640,SRBOL,SR Bolivar,TN,3.3,2022,35.256656,-89.020275
60026,PV1,Little Rock Pham Solar,CA,3.0,2015,34.600231,-117.94751
60300,IMPV1,Montana Solar Facility,TX,3.0,2017,31.813061,-106.218892
64367,30006,"Zuma Solar, LLC",NC,3.0,2020,36.510939,-79.437885
59587,PV1,Yadkin 601 Farm,NC,3.0,2015,36.199167,-80.697222
62661,1047,"1047 Little Mountain Solar, LLC",NC,3.0,2019,36.197067,-80.806725
61733,HWOOD,Haywood Solar,TN,3.0,2017,35.5775,-89.286944
57671,PV1,SMUD at Fleshman,CA,2.9,2011,38.237778,-121.3375
67527,63613,White River Medical Center,AR,2.9,2023,35.609774,-91.257038
65759,PE2,Putnam Erikson 2,GA,2.9,2021,33.276821,-83.29845
57670,PV1,SMUD at Van Conett,CA,2.9,2011,38.253056,-121.278888
63732,11630,"ESA Buies Creek, LLC",NC,2.8,2020,35.41424,-78.71433
67523,52418,Searcy Water II,AR,2.8,2021,35.207905,-91.722163
67526,62293,UADA,AR,2.8,2023,33.926582,-93.858865
57367,POCON,Pocono Solar Project,PA,2.7,2010,41.061022,-75.514924
59861,TBPV1,Twin Branch PV,IN,2.6,2016,41.69,-86.12
67082,FRANK,"SR Franklin, LLC",KY,2.5,2023,36.713497,-86.54697
65533,AUGU,Augusta,ME,2.5,2022,44.36124,-69.79636
64477,1,"Suncaster, LLC",NC,2.4,2021,35.504069,-77.969554
58381,1,Bryan Solar Field,OH,2.1,2012,41.476389,-84.586111
57567,ASEC1,Albuquerque Solar Energy Center,NM,2.0,2011,35.168957,-106.60005
61096,1,Sampson Solar,NC,2.0,2015,34.961039,-78.470536
61432,SCCU1,SCE&G Curie CSG,SC,2.0,2019,32.89,-81.106
60913,PV1,Ohio Northern University Solar Site,OH,2.0,2016,40.759622,-83.8391
62996,PGR08,ESA Four Oaks 2 NC LLC,NC,2.0,2019,35.416104,-78.409231
63346,PGR06,"Cubera Solar, LLC",NC,2.0,2020,35.330022,-78.610091
63461,PGR15,Bonefish Solar,SC,2.0,2019,33.720936,-80.190821
60497,SKY B,SR Skylark B,CO,2.0,2016,40.579472,-104.895675
64514,SOL1,Ludie Brown Solar Energy Storage,NC,2.0,2022,34.831,-77.77
60200,LAUR,"Laurinburg Solar, LLC (Heelstone)",NC,2.0,2015,34.707644,-79.29538
64730,BCK17,IL17021 Brush Creek I CSG,IL,2.0,2022,42.452243,-89.638813
64971,PRETZ,Pretzel CSG,IL,2.0,2022,42.307119,-89.598098
65671,CATTL,Cattail (CSG),IL,2.0,2022,41.822595,-90.131166
57571,LMS2,Los Lunas Solar Energy Center,NM,2.0,2013,34.833136,-106.772413
67079,CLRK1,"SR Clarksville, LLC",TN,2.0,2023,36.523317,-87.31664
67192,WPINE,"SR White Pine, LLC",TN,2.0,2023,36.12323,-83.28383
67507,62289,ACC,AR,2.0,2023,33.926859,-93.860136
59115,1,Anderson Farm LLC,NC,1.9,2014,34.975556,-78.516667
67517,63154,El Dorado AR,AR,1.8,2024,33.212935,-92.621543
59489,AWS1,Anthony Wayne Solar #1,OH,1.7,2014,41.627222,-83.574722
64024,262,"Monte Vista Solar 2 CSG, LLC",CO,1.6,2020,37.57176,-106.09988
62667,LFHSL,Lafayette Horizon Solar CSG LLC,CO,1.6,2019,39.981606,-105.063747
64021,225,Alden Solar CSG LLC,CO,1.6,2020,40.45633,-104.58107
62468,MCS01,Music City Community Solar,TN,1.6,2018,36.248832,-86.746776
64266,264,Alamosa Solar South CSG,CO,1.6,2021,37.4512,-105.85916
56877,TBD,Hall's Warehouse Solar Project,NJ,1.6,2009,40.573708,-74.394414
60678,SJ1B,San Joaquin Solar,CA,1.5,2019,36.527,-120.149
59297,CARRI,Carrier Clinic,NJ,1.5,2009,40.47,-74.685
66140,PNA01,PNA Rossford Solar Array,OH,1.4,2022,41.614879,-83.557244
63753,218,"Platteville Solar CSG, LLC",CO,1.3,2020,40.22833,-104.77471
67158,MARN1,"SR Marion, LLC",TN,1.3,2024,35.39048,-85.38391
67868,HF1,Harris Farms Solar Facility,CA,1.3,2024,36.253184,-120.229268
67516,59211,CSU Sacramento I,CA,1.3,2023,38.553,-121.422
61493,SEALY,E-Volve Energy Holdings LLC,TX,1.2,2015,29.740788,-96.15994
67514,56757,City of Green Forest (Carroll),AR,1.2,2022,36.367396,-93.542849
63304,ALIUM,"Allium Community Solar Garden, LLC",MN,1.0,2021,45.399701,-94.723142
60712,UCS1,Ursa Community Solar,MN,1.0,2017,44.671581,-93.082555
60712,UCS2,Ursa Community Solar,MN,1.0,2017,44.671581,-93.082555
60712,UCS3,Ursa Community Solar,MN,1.0,2017,44.671581,-93.082555
60712,UCS4,Ursa Community Solar,MN,1.0,2017,44.671581,-93.082555
60712,UCS5,Ursa Community Solar,MN,1.0,2017,44.671581,-93.082555
60713,SCS1,Sunrise Community Solar,MN,1.0,2016,45.474994,-92.891092
60713,SCS2,Sunrise Community Solar,MN,1.0,2016,45.474994,-92.891092
60713,SCS3,Sunrise Community Solar,MN,1.0,2016,45.474994,-92.891092
62800,WAB,Wabasha Solar,MN,1.0,2019,44.363109,-92.021668
62799,WIN,Winona Solar,MN,1.0,2019,44.124097,-91.900997
60713,SCS4,Sunrise Community Solar,MN,1.0,2016,45.474994,-92.891092
60713,SCS5,Sunrise Community Solar,MN,1.0,2016,45.474994,-92.891092
60714,RCS1,Rosemount Community Solar,MN,1.0,2016,44.72241,-93.022909
60714,RCS2,Rosemount Community Solar,MN,1.0,2016,44.72241,-93.022909
60714,RCS3,Rosemount Community Solar,MN,1.0,2016,44.72241,-93.022909
60714,RCS4,Rosemount Community Solar,MN,1.0,2016,44.72241,-93.022909
60714,RCS5,Rosemount Community Solar,MN,1.0,2016,44.72241,-93.022909
60715,PCS1,Paynesville Community Solar,MN,1.0,2016,45.402543,-94.715472
60715,PCS2,Paynesville Community Solar,MN,1.0,2016,45.402543,-94.715472
60715,PCS3,Paynesville Community Solar,MN,1.0,2016,45.402543,-94.715472
60715,PCS4,Paynesville Community Solar,MN,1.0,2016,45.402543,-94.715472
60715,PCS5,Paynesville Community Solar,MN,1.0,2017,45.402543,-94.715472
60716,OCS1,Orion Community Solar,MN,1.0,2017,45.587899,-94.401439
60716,OCS2,Orion Community Solar,MN,1.0,2017,45.587899,-94.401439
60716,OCS3,Orion Community Solar,MN,1.0,2017,45.587899,-94.401439
60717,NCS1,Northfield Community Solar,MN,1.0,2016,44.475433,-93.198308
60717,NCS2,Northfield Community Solar,MN,1.0,2016,44.475433,-93.198308
60717,NCS3,Northfield Community Solar,MN,1.0,2016,44.475433,-93.198308
60717,NCS4,Northfield Community Solar,MN,1.0,2016,44.475433,-93.198308
60717,NCS5,Northfield Community Solar,MN,1.0,2016,44.475433,-93.198308
61716,KAUS,Kaus Community Solar,MN,1.0,2019,44.050383,-92.961372
61715,DENE,Deneb Community Solar,MN,1.0,2019,45.404139,-94.831075
61713,LEO,Leo Community Solar,MN,1.0,2018,43.978197,-95.850781
61712,CRUX,Crux Community Solar,MN,1.0,2019,44.04006,-92.69318
61711,CASS,Cassiopeia Community Solar,MN,1.0,2019,45.647342,-95.328661
61710,AQUA,Aquarius Community Solar,MN,1.0,2019,44.229142,-95.620106
61709,LIBR,Libra Community Solar,MN,1.0,2018,45.671231,-95.388514
61708,SAGI,Sagitta Community Solar,MN,1.0,2018,44.948328,-95.386192
61707,CANO,Canopus Community Solar,MN,1.0,2019,45.428308,-94.823247
61706,AURI,Auriga Community Solar,MN,1.0,2018,43.977875,-95.767356
61705,ARCT,Acturus Community Solar,MN,1.0,2018,44.283211,-93.954417
61704,AQUI,Aquila Community Solar,MN,1.0,2019,45.651056,-95.3401
60913,PV2,Ohio Northern University Solar Site,OH,1.0,2018,40.759622,-83.8391
60937,IACS1,Antlia Community Solar,MN,1.0,2017,43.906524,-96.138235
60937,IACS2,Antlia Community Solar,MN,1.0,2017,43.906524,-96.138235
65642,SRJA2,SR Jackson II,TN,1.0,2022,35.607757,-88.917046
60938,AACS1,Aries Community Solar,MN,1.0,2017,44.044924,-92.988569
60938,AACS2,Aries Community Solar,MN,1.0,2017,44.044924,-92.988569
60942,BMCS1,Morgan Community Solar,MN,1.0,2017,44.413186,-94.907619
60938,AACS3,Aries Community Solar,MN,1.0,2017,44.044924,-92.988569
60938,AACS4,Aries Community Solar,MN,1.0,2017,44.044924,-92.988569
60939,KCCS1,Centaurus Community Solar,MN,1.0,2017,44.949053,-95.511257
60939,KCCS2,Centaurus Community Solar,MN,1.0,2017,44.949053,-95.511257
60940,LGCS1,Gemini Community Solar,MN,1.0,2017,45.300294,-92.804361
60940,LGCS2,Gemini Community Solar,MN,1.0,2017,45.300294,-92.804361
61651,CAPR,Capricornus Community Solar Garden,MN,1.0,2019,45.398742,-94.717433
61645,ALTA,Altair Community Solar Garden,MN,1.0,2019,43.924981,-93.485831
61382,LIND3,Lindstrom Solar CSG,MN,1.0,2018,45.319892,-92.796599
61382,LIND2,Lindstrom Solar CSG,MN,1.0,2018,45.319892,-92.796599
65772,1,Big Bend Floating Solar I,FL,1.0,2022,27.78822,-82.39541
61382,LIND1,Lindstrom Solar CSG,MN,1.0,2018,45.319892,-92.796599
61329,QDCS2,Delphinus Community Solar,MN,1.0,2018,45.618565,-94.088758
61329,QDCS1,Delphinus Community Solar,MN,1.0,2018,45.618565,-94.088758
61328,TCCS3,Crater Community Solar,MN,1.0,2017,44.798733,-95.508331
61328,TCCS2,Crater Community Solar,MN,1.0,2017,44.798733,-95.508331
61328,TCCS1,Crater Community Solar,MN,1.0,2017,44.798733,-95.508331
60940,LGCS3,Gemini Community Solar,MN,1.0,2017,45.300294,-92.804361
61183,UACS3,Argo Navis Community Solar,MN,1.0,2018,45.255245,-92.772284
61183,UACS2,Argo Navis Community Solar,MN,1.0,2018,45.255245,-92.772284
61183,UACS1,Argo Navis Community Solar,MN,1.0,2018,45.255245,-92.772284
61182,RLCS3,Lyra Community Solar,MN,1.0,2018,44.240346,-93.585787
61182,RLCS2,Lyra Community Solar,MN,1.0,2018,44.240346,-93.585787
61182,RLCS1,Lyra Community Solar,MN,1.0,2018,44.240346,-93.585787
61181,OACS5,Andromeda Community Solar,MN,1.0,2017,44.901926,-94.031626
57753,PV1,SMUD at Lawrence,CA,1.0,2011,38.338868,-121.431342
61181,OACS4,Andromeda Community Solar,MN,1.0,2017,44.901926,-94.031626
61181,OACS3,Andromeda Community Solar,MN,1.0,2017,44.901926,-94.031626
61181,OACS2,Andromeda Community Solar,MN,1.0,2017,44.901926,-94.031626
61181,OACS1,Andromeda Community Solar,MN,1.0,2017,44.901926,-94.031626
61180,PCCS2,Caelum Community Solar,MN,1.0,2017,45.662006,-93.936782
61180,PCCS1,Caelum Community Solar,MN,1.0,2017,45.662006,-93.936782
61179,JCCS4,Carina Community Solar,MN,1.0,2018,44.164677,-92.241187
61179,JCCS3,Carina Community Solar,MN,1.0,2018,44.164677,-92.241187
61179,JCCS2,Carina Community Solar,MN,1.0,2018,44.164677,-92.241187
61179,JCCS1,Carina Community Solar,MN,1.0,2018,44.164677,-92.241187
61178,HCCS5,Capella Community Solar,MN,1.0,2017,44.0901,-96.161204
60941,DMCS2,Mapleton Community Solar,MN,1.0,2017,43.928851,-93.956064
61178,HCCS4,Capella Community Solar,MN,1.0,2017,44.0901,-96.161204
61178,HCCS3,Capella Community Solar,MN,1.0,2017,44.0901,-96.161204
61178,HCCS2,Capella Community Solar,MN,1.0,2017,44.0901,-96.161204
61178,HCCS1,Capella Community Solar,MN,1.0,2017,44.0901,-96.161204
61177,GCCS5,Corvus Community Solar,MN,1.0,2018,44.191352,-93.944002
61177,GCCS4,Corvus Community Solar,MN,1.0,2018,44.191352,-93.944002
61177,GCCS3,Corvus Community Solar,MN,1.0,2018,44.191352,-93.944002
61177,GCCS2,Corvus Community Solar,MN,1.0,2018,44.191352,-93.944002
61177,GCCS1,Corvus Community Solar,MN,1.0,2018,44.191352,-93.944002
61176,FACS3,Antares Community Solar,MN,1.0,2018,44.226179,-95.623804
56875,TBD,Sacramento Soleil LLC,CA,1.0,2008,38.44979,-121.16469
61176,FACS2,Antares Community Solar,MN,1.0,2018,44.226179,-95.623804
61176,FACS1,Antares Community Solar,MN,1.0,2018,44.226179,-95.623804
61175,CPCS2,Pegasus Community Solar,MN,1.0,2017,45.495453,-95.124682
61175,CPCS1,Pegasus Community Solar,MN,1.0,2017,45.495453,-95.124682
61174,ETCS4,Taurus Community Solar,MN,1.0,2018,44.95028,-95.691471
61174,ETCS3,Taurus Community Solar,MN,1.0,2018,44.95028,-95.691471
61174,ETCS2,Taurus Community Solar,MN,1.0,2018,44.95028,-95.691471
61174,ETCS1,Taurus Community Solar,MN,1.0,2018,44.95028,-95.691471
61139,MARM5,Marmas Solar CSG,MN,1.0,2018,45.556056,-94.117112
61139,MARM4,Marmas Solar CSG,MN,1.0,2018,45.556056,-94.117112
61139,MARM3,Marmas Solar CSG,MN,1.0,2018,45.556056,-94.117112
61139,MARM2,Marmas Solar CSG,MN,1.0,2018,45.556056,-94.117112
60941,DMCS3,Mapleton Community Solar,MN,1.0,2017,43.928851,-93.956064
60941,DMCS1,Mapleton Community Solar,MN,1.0,2017,43.928851,-93.956064
57008,1,SunEdison Procter & Gamble Oxnard,CA,1.0,2009,34.2089,-119.13
60944,NVCS5,Vega Community Solar,MN,1.0,2017,45.382813,-95.203741
68808,P1001,Dos Palos Cooperative Gin,CA,1.0,2022,37.083909,-120.63443
60944,NVCS4,Vega Community Solar,MN,1.0,2017,45.382813,-95.203741
67515,60845,Crossett SD,AR,1.0,2022,33.131191,-91.941101
67518,63583,Fayetteville Public Schools (Ozarks),AR,1.0,2023,36.004934,-94.020522
60944,NVCS3,Vega Community Solar,MN,1.0,2017,45.382813,-95.203741
60944,NVCS2,Vega Community Solar,MN,1.0,2017,45.382813,-95.203741
67521,60336,Rivercrest SD,AR,1.0,2022,35.618068,-90.104916
67522,69620,Searcy Water I,AR,1.0,2021,35.265897,-91.715889
60944,NVCS1,Vega Community Solar,MN,1.0,2017,45.382813,-95.203741
67524,60334,Southside SD,AR,1.0,2023,34.724417,-92.196797
60943,MSCS2,Spica Community Solar,MN,1.0,2017,44.936146,-94.854097
63403,CCS,Clara City Solar,MN,1.0,2019,44.94664,-95.350237
63401,OLI,Olinda Trail Solar,MN,1.0,2019,45.31593,-92.80411
63400,STE,Stearns Solar I,MN,1.0,2019,45.650158,-94.557542
63319,IRIS,"Iris Solar, LLC (MN)",MN,1.0,2020,44.253592,-94.209687
63318,BELLF,"Bellflower Solar, LLC",MN,1.0,2020,45.507295,-95.12733
63317,GERNM,"Geranium Solar, LLC",MN,1.0,2020,44.964569,-95.229505
60943,MSCS1,Spica Community Solar,MN,1.0,2017,44.936146,-94.854097
63315,KERIA,"Kerria Solar, LLC",MN,1.0,2020,44.795609,-95.203195
63314,PROSE,"Primrose Solar, LLC",MN,1.0,2021,44.205398,-93.9792
63313,CORAL,"Coral Bells Solar, LLC",MN,1.0,2020,45.471,-92.891
60942,BMCS3,Morgan Community Solar,MN,1.0,2017,44.413186,-94.907619
63312,HYCIN,"Hyacinth Solar, LLC",MN,1.0,2020,44.474147,-93.199277
63311,LANTA,"Lantana Solar, LLC",MN,1.0,2021,44.646,-95.358
60942,BMCS2,Morgan Community Solar,MN,1.0,2017,44.413186,-94.907619
63309,HONEY,"Honeysuckle Solar, LLC",MN,1.0,2021,44.907623,-94.027151
63308,MGOLD,"Marigold Community Solar Garden, LLC",MN,1.0,2021,44.197311,-93.615267
63307,WESTP,"Westport Community Solar, LLC",MN,1.0,2021,44.939037,-94.904383
63305,ASTER,"Aster Community Solar Garden, LLC",MN,1.0,2020,45.008221,-95.229451
60472,CPS1,CPS 1 Community Solar,TX,1.0,2016,29.377966,-98.26922
63629,HYDRA,"Hydra Community Solar Garden, LLC (CSG)",MN,1.0,2020,44.416723,-93.219857
63402,MUN,New Munich Solar,MN,1.0,2019,45.654086,-94.75565
64001,CAMEL,"Camellia Solar, LLC",MN,1.0,2020,45.642745,-95.353265
63774,KRS,Mount Kisco Landfill Solar & Storage CSG,NY,1.0,2020,41.195478,-73.73606
57579,2,Robert O Schulz Solar Farm,CA,0.4,2009,37.8583,-120.8917
62643,4202,AZ State University - Tempe Campus Solar,AZ,0.1,2009,33.424279,-111.92822
62643,91001,AZ State University - Tempe Campus Solar,AZ,0.1,2018,33.424279,-111.92822
